{
"type": "FeatureCollection",
"name": "facschools",
"crs": { "type": "name", "properties": { "name": "urn:ogc:def:crs:OGC:1.3:CRS84" } },
"features": [
{ "type": "Feature", "id": 0, "properties": { "OBJECTID": 1.0, "LEVEL_": "C", "LOC_TYPE": "JCPS", "LOC": 165.0, "SCH_NAME": "BROWN SCHOOL", "ADDRESS": "546 S 1ST ST", "CITY": "LOUISVILLE", "ST": "KY", "ZIP": 40202.0, "PHONE": "485-8216", "SCH_AB": "BROWN", "SCH_WEB": "http:\/\/mybrownschool.org", "FACNAME": "BROWN SCHOOL" }, "geometry": { "type": "Point", "coordinates": [ -85.753186451201216, 38.25018484520718 ] } },
{ "type": "Feature", "id": 1, "properties": { "OBJECTID": 5.0, "LEVEL_": "E", "LOC_TYPE": "JCPS", "LOC": 185.0, "SCH_NAME": "ATKINSON ELEMENTARY", "ADDRESS": "2811 DUNCAN ST", "CITY": "LOUISVILLE", "ST": "KY", "ZIP": 40212.0, "PHONE": "485-8203", "SCH_AB": "ATKINSON", "SCH_WEB": "http:\/\/schools.jefferson.kyschools.us\/Elementary\/Atkinson\/index.html", "FACNAME": "ATKINSON ELEMENTARY" }, "geometry": { "type": "Point", "coordinates": [ -85.797839116074584, 38.265001515495314 ] } },
{ "type": "Feature", "id": 2, "properties": { "OBJECTID": 7.0, "LEVEL_": "E", "LOC_TYPE": "JCPS", "LOC": 44.0, "SCH_NAME": "AUDUBON TRADITIONAL ELEM", "ADDRESS": "1051 HESS LN", "CITY": "LOUISVILLE", "ST": "KY", "ZIP": 40217.0, "PHONE": "485-8205", "SCH_AB": "AUDUBON TRAD", "SCH_WEB": "http:\/\/schools.jefferson.kyschools.us\/Elementary\/Audubon\/", "FACNAME": "AUDUBON TRADITIONAL ELEM" }, "geometry": { "type": "Point", "coordinates": [ -85.731275280911674, 38.208122571756824 ] } },
{ "type": "Feature", "id": 3, "properties": { "OBJECTID": 10.0, "LEVEL_": "E", "LOC_TYPE": "JCPS", "LOC": 225.0, "SCH_NAME": "BLOOM ELEMENTARY", "ADDRESS": "1627 LUCIA AV", "CITY": "LOUISVILLE", "ST": "KY", "ZIP": 40204.0, "PHONE": "485-8211", "SCH_AB": "BLOOM", "SCH_WEB": "http:\/\/schools.jefferson.kyschools.us\/Elementary\/Bloom\/index.html", "FACNAME": "BLOOM ELEMENTARY" }, "geometry": { "type": "Point", "coordinates": [ -85.719725173253252, 38.236712067277743 ] } },
{ "type": "Feature", "id": 4, "properties": { "OBJECTID": 13.0, "LEVEL_": "E", "LOC_TYPE": "JCPS", "LOC": 260.0, "SCH_NAME": "BRANDEIS ELEMENTARY", "ADDRESS": "2817 W KENTUCKY ST", "CITY": "LOUISVILLE", "ST": "KY", "ZIP": 40211.0, "PHONE": "485-8214", "SCH_AB": "BRANDEIS", "SCH_WEB": "http:\/\/schools.jefferson.kyschools.us\/Elementary\/Brandeis\/index.html", "FACNAME": "BRANDEIS ELEMENTARY" }, "geometry": { "type": "Point", "coordinates": [ -85.800238696650325, 38.244314195284815 ] } },
{ "type": "Feature", "id": 5, "properties": { "OBJECTID": 14.0, "LEVEL_": "E", "LOC_TYPE": "JCPS", "LOC": 38.0, "SCH_NAME": "BRECKINRIDGE-FRANKLIN ELEM", "ADDRESS": "1351 PAYNE ST", "CITY": "LOUISVILLE", "ST": "KY", "ZIP": 40206.0, "PHONE": "485-8215", "SCH_AB": "BRECKINRIDGE\/FRANKLIN", "SCH_WEB": "http:\/\/schools.jefferson.kyschools.us\/Elementary\/BreckFrank\/index.html", "FACNAME": "BRECKINRIDGE\/FRANKLIN ELEM" }, "geometry": { "type": "Point", "coordinates": [ -85.723482779661069, 38.249525484744218 ] } },
{ "type": "Feature", "id": 6, "properties": { "OBJECTID": 15.0, "LEVEL_": "E", "LOC_TYPE": "JCPS", "LOC": 243.0, "SCH_NAME": "BYCK ELEMENTARY", "ADDRESS": "2328 CEDAR ST", "CITY": "LOUISVILLE", "ST": "KY", "ZIP": 40212.0, "PHONE": "485-8221", "SCH_AB": "BYCK", "SCH_WEB": "http:\/\/schools.jefferson.kyschools.us\/Elementary\/Byck\/index.html", "FACNAME": "BYCK ELEMENTARY" }, "geometry": { "type": "Point", "coordinates": [ -85.790270249018448, 38.255690465368929 ] } },
{ "type": "Feature", "id": 7, "properties": { "OBJECTID": 16.0, "LEVEL_": "E", "LOC_TYPE": "JCPS", "LOC": 4.0, "SCH_NAME": "CAMP TAYLOR ELEMENTARY", "ADDRESS": "1446 BELMAR DR", "CITY": "LOUISVILLE", "ST": "KY", "ZIP": 40213.0, "PHONE": "485-8222", "SCH_AB": "CAMP TAYLOR", "SCH_WEB": "http:\/\/camptaylor.jcps.schooldesk.net\/", "FACNAME": "CAMP TAYLOR ELEMENTARY" }, "geometry": { "type": "Point", "coordinates": [ -85.719055276203463, 38.19646415355939 ] } },
{ "type": "Feature", "id": 8, "properties": { "OBJECTID": 18.0, "LEVEL_": "E", "LOC_TYPE": "JCPS", "LOC": 680.0, "SCH_NAME": "CARTER TRADITIONAL ELEM", "ADDRESS": "3600 BOHNE AV", "CITY": "LOUISVILLE", "ST": "KY", "ZIP": 40211.0, "PHONE": "485-8225", "SCH_AB": "CARTER", "SCH_WEB": "http:\/\/schools.jefferson.kyschools.us\/Elementary\/Carter\/index.html", "FACNAME": "CARTER TRADITIONAL ELEM" }, "geometry": { "type": "Point", "coordinates": [ -85.814830379995698, 38.22814686137761 ] } },
{ "type": "Feature", "id": 9, "properties": { "OBJECTID": 21.0, "LEVEL_": "E", "LOC_TYPE": "JCPS", "LOC": 46.0, "SCH_NAME": "CHENOWETH ELEMENTARY", "ADDRESS": "3622 BROWNSBORO RD", "CITY": "LOUISVILLE", "ST": "KY", "ZIP": 40207.0, "PHONE": "485-8227", "SCH_AB": "CHENOWETH", "SCH_WEB": "http:\/\/schools.jefferson.kyschools.us\/Elementary\/Chenoweth\/index.html", "FACNAME": "CHENOWETH ELEMENTARY" }, "geometry": { "type": "Point", "coordinates": [ -85.669319045114747, 38.262830867656689 ] } },
{ "type": "Feature", "id": 10, "properties": { "OBJECTID": 22.0, "LEVEL_": "E", "LOC_TYPE": "JCPS", "LOC": 323.0, "SCH_NAME": "COCHRAN ELEMENTARY", "ADDRESS": "500 W GAULBERT AV", "CITY": "LOUISVILLE", "ST": "KY", "ZIP": 40208.0, "PHONE": "485-8230", "SCH_AB": "COCHRAN", "SCH_WEB": "http:\/\/schools.jefferson.kyschools.us\/Elementary\/cochran\/index.html", "FACNAME": "COCHRAN ELEMENTARY" }, "geometry": { "type": "Point", "coordinates": [ -85.764760783662666, 38.224704447751833 ] } },
{ "type": "Feature", "id": 11, "properties": { "OBJECTID": 24.0, "LEVEL_": "E", "LOC_TYPE": "JCPS", "LOC": 660.0, "SCH_NAME": "COLERIDGE TAYLOR MONTESSORI", "ADDRESS": "1115 W CHESTNUT ST", "CITY": "LOUISVILLE", "ST": "KY", "ZIP": 40203.0, "PHONE": "485-8232", "SCH_AB": "COLERIDGE-TAYLOR", "SCH_WEB": "http:\/\/schools.jefferson.kyschools.us\/elementary\/coleridgetaylor\/index.html", "FACNAME": "COLERIDGE TAYLOR MONTESSORI" }, "geometry": { "type": "Point", "coordinates": [ -85.770116204325063, 38.250996435108249 ] } },
{ "type": "Feature", "id": 12, "properties": { "OBJECTID": 30.0, "LEVEL_": "E", "LOC_TYPE": "JCPS", "LOC": 240.0, "SCH_NAME": "ENGELHARD ELEMENTARY", "ADDRESS": "1004 S 1ST ST", "CITY": "LOUISVILLE", "ST": "KY", "ZIP": 40203.0, "PHONE": "485-8246", "SCH_AB": "ENGELHARD", "SCH_WEB": "http:\/\/schools.jefferson.kyschools.us\/Elementary\/Engelhard\/index.html", "FACNAME": "ENGELHARD ELEMENTARY" }, "geometry": { "type": "Point", "coordinates": [ -85.755158268521015, 38.238096739400447 ] } },
{ "type": "Feature", "id": 13, "properties": { "OBJECTID": 34.0, "LEVEL_": "E", "LOC_TYPE": "JCPS", "LOC": 250.0, "SCH_NAME": "FIELD ELEMENTARY", "ADDRESS": "120 SACRED HEART LN", "CITY": "LOUISVILLE", "ST": "KY", "ZIP": 40206.0, "PHONE": "485-8252", "SCH_AB": "FIELD", "SCH_WEB": "http:\/\/schools.jefferson.kyschools.us\/Elementary\/Field\/Index.html", "FACNAME": "FIELD ELEMENTARY" }, "geometry": { "type": "Point", "coordinates": [ -85.678288285195677, 38.252222047213372 ] } },
{ "type": "Feature", "id": 14, "properties": { "OBJECTID": 35.0, "LEVEL_": "E", "LOC_TYPE": "JCPS", "LOC": 270.0, "SCH_NAME": "FOSTER TRADITIONAL ACADEMY", "ADDRESS": "1401 S 41ST ST", "CITY": "LOUISVILLE", "ST": "KY", "ZIP": 40211.0, "PHONE": "485-8253", "SCH_AB": "FOSTER", "SCH_WEB": "http:\/\/schools.jefferson.kyschools.us\/Elementary\/Foster\/Index.html", "FACNAME": "FOSTER TRADITIONAL ACADEMY" }, "geometry": { "type": "Point", "coordinates": [ -85.820626467772641, 38.236882350207189 ] } },
{ "type": "Feature", "id": 15, "properties": { "OBJECTID": 36.0, "LEVEL_": "E", "LOC_TYPE": "JCPS", "LOC": 290.0, "SCH_NAME": "FRAYSER ELEMENTARY", "ADDRESS": "1230 LARCHMONT AV", "CITY": "LOUISVILLE", "ST": "KY", "ZIP": 40215.0, "PHONE": "485-8255", "SCH_AB": "FRAYSER", "SCH_WEB": "http:\/\/schools.jefferson.kyschools.us\/Elementary\/Frayser\/index.html", "FACNAME": "FRAYSER ELEMENTARY" }, "geometry": { "type": "Point", "coordinates": [ -85.779919539705404, 38.208480798714966 ] } },
{ "type": "Feature", "id": 16, "properties": { "OBJECTID": 41.0, "LEVEL_": "E", "LOC_TYPE": "JCPS", "LOC": 115.0, "SCH_NAME": "GUTERMUTH ELEMENTARY", "ADDRESS": "1500 SANDERS LN", "CITY": "LOUISVILLE", "ST": "KY", "ZIP": 40216.0, "PHONE": "485-8261", "SCH_AB": "GUTERMUTH", "SCH_WEB": "http:\/\/schools.jefferson.kyschools.us\/Elementary\/Gutermuth\/index.html", "FACNAME": "GUTERMUTH ELEMENTARY" }, "geometry": { "type": "Point", "coordinates": [ -85.807516147374614, 38.17785899654762 ] } },
{ "type": "Feature", "id": 17, "properties": { "OBJECTID": 43.0, "LEVEL_": "E", "LOC_TYPE": "JCPS", "LOC": 48.0, "SCH_NAME": "HAWTHORNE ELEMENTARY", "ADDRESS": "2301 CLARENDON AV", "CITY": "LOUISVILLE", "ST": "KY", "ZIP": 40205.0, "PHONE": "485-8263", "SCH_AB": "HAWTHORNE", "SCH_WEB": "http:\/\/schools.jefferson.kyschools.us\/Elementary\/Hawthorne\/index.asp", "FACNAME": "HAWTHORNE ELEMENTARY" }, "geometry": { "type": "Point", "coordinates": [ -85.671560960039102, 38.218661487496917 ] } },
{ "type": "Feature", "id": 18, "properties": { "OBJECTID": 44.0, "LEVEL_": "E", "LOC_TYPE": "JCPS", "LOC": 300.0, "SCH_NAME": "HAZELWOOD ELEMENTARY", "ADDRESS": "1325 BLUEGRASS AV", "CITY": "LOUISVILLE", "ST": "KY", "ZIP": 40215.0, "PHONE": "485-8264", "SCH_AB": "HAZELWOOD", "SCH_WEB": "https:\/\/www.jefferson.kyschools.us\/schools\/profiles\/hazelwood", "FACNAME": "HAZELWOOD ELEMENTARY" }, "geometry": { "type": "Point", "coordinates": [ -85.785585590066788, 38.180844912654145 ] } },
{ "type": "Feature", "id": 19, "properties": { "OBJECTID": 47.0, "LEVEL_": "E", "LOC_TYPE": "JCPS", "LOC": 325.0, "SCH_NAME": "JACOB ELEMENTARY", "ADDRESS": "3701 E WHEATMORE DR", "CITY": "LOUISVILLE", "ST": "KY", "ZIP": 40215.0, "PHONE": "485-8271", "SCH_AB": "JACOB ELEM", "SCH_WEB": "http:\/\/schools.jefferson.kyschools.us\/Elementary\/Jacob\/index.html", "FACNAME": "JACOB ELEMENTARY" }, "geometry": { "type": "Point", "coordinates": [ -85.795707041121915, 38.19190793435267 ] } },
{ "type": "Feature", "id": 20, "properties": { "OBJECTID": 50.0, "LEVEL_": "E", "LOC_TYPE": "JCPS", "LOC": 720.0, "SCH_NAME": "KENNEDY MONTESSORI ELEMENTARY", "ADDRESS": "3800 GIBSON LN", "CITY": "LOUISVILLE", "ST": "KY", "ZIP": 40211.0, "PHONE": "485-8280", "SCH_AB": "KENNEDY", "SCH_WEB": "http:\/\/schools.jefferson.kyschools.us\/Elementary\/Kennedy\/index.html", "FACNAME": "KENNEDY MONTESSORI ELEMENTARY" }, "geometry": { "type": "Point", "coordinates": [ -85.818762676888127, 38.231571646986957 ] } },
{ "type": "Feature", "id": 21, "properties": { "OBJECTID": 51.0, "LEVEL_": "E", "LOC_TYPE": "JCPS", "LOC": 59.0, "SCH_NAME": "KENWOOD ELEMENTARY", "ADDRESS": "7420 JUSTAN AV", "CITY": "LOUISVILLE", "ST": "KY", "ZIP": 40214.0, "PHONE": "485-8283", "SCH_AB": "KENWOOD", "SCH_WEB": "http:\/\/schools.jefferson.kyschools.us\/Elementary\/Kenwood\/index.html", "FACNAME": "KENWOOD ELEMENTARY" }, "geometry": { "type": "Point", "coordinates": [ -85.787249022601046, 38.145503392528006 ] } },
{ "type": "Feature", "id": 22, "properties": { "OBJECTID": 53.0, "LEVEL_": "E", "LOC_TYPE": "JCPS", "LOC": 432.0, "SCH_NAME": "KING ELEMENTARY", "ADDRESS": "4325 VERMONT AV", "CITY": "LOUISVILLE", "ST": "KY", "ZIP": 40211.0, "PHONE": "485-8285", "SCH_AB": "KING", "SCH_WEB": "http:\/\/schools.jefferson.kyschools.us\/Elementary\/King\/index.html", "FACNAME": "KING ELEMENTARY" }, "geometry": { "type": "Point", "coordinates": [ -85.823429631628514, 38.257844332781531 ] } },
{ "type": "Feature", "id": 23, "properties": { "OBJECTID": 54.0, "LEVEL_": "E", "LOC_TYPE": "JCPS", "LOC": 134.0, "SCH_NAME": "KLONDIKE LANE ELEMENTARY", "ADDRESS": "3807 KLONDIKE LN", "CITY": "LOUISVILLE", "ST": "KY", "ZIP": 40218.0, "PHONE": "485-8286", "SCH_AB": "KLONDIKE LANE", "SCH_WEB": "http:\/\/schools.jefferson.kyschools.us\/Elementary\/Klondike\/index.html", "FACNAME": "KLONDIKE LANE ELEMENTARY" }, "geometry": { "type": "Point", "coordinates": [ -85.637253884630226, 38.209030632777953 ] } },
{ "type": "Feature", "id": 24, "properties": { "OBJECTID": 57.0, "LEVEL_": "E", "LOC_TYPE": "JCPS", "LOC": 520.0, "SCH_NAME": "LINCOLN ELEMENTARY", "ADDRESS": "930 E MAIN ST", "CITY": "LOUISVILLE", "ST": "KY", "ZIP": 40206.0, "PHONE": "485-8291", "SCH_AB": "LINCOLN", "SCH_WEB": "http:\/\/lincoln.jefferson.kyschools.us\/", "FACNAME": "LINCOLN ELEMENTARY" }, "geometry": { "type": "Point", "coordinates": [ -85.734903353978964, 38.253896800649365 ] } },
{ "type": "Feature", "id": 25, "properties": { "OBJECTID": 60.0, "LEVEL_": "E", "LOC_TYPE": "JCPS", "LOC": 480.0, "SCH_NAME": "MAUPIN ELEMENTARY", "ADDRESS": "1312 CATALPA ST", "CITY": "LOUISVILLE", "ST": "KY", "ZIP": 40211.0, "PHONE": "485-8310", "SCH_AB": "MAUPIN", "SCH_WEB": "http:\/\/schools.jefferson.kyschools.us\/Elementary\/Maupin\/index.html", "FACNAME": "MAUPIN ELEMENTARY" }, "geometry": { "type": "Point", "coordinates": [ -85.802253454082944, 38.235542982308118 ] } },
{ "type": "Feature", "id": 26, "properties": { "OBJECTID": 61.0, "LEVEL_": "E", "LOC_TYPE": "JCPS", "LOC": 440.0, "SCH_NAME": "MCFERRAN PREPARATORY", "ADDRESS": "1900 S 7TH ST", "CITY": "LOUISVILLE", "ST": "KY", "ZIP": 40208.0, "PHONE": "485-8297", "SCH_AB": "MCFERRAN", "SCH_WEB": "http:\/\/schools.jefferson.kyschools.us\/Elementary\/McFerran\/Index.html", "FACNAME": "MCFERRAN PREPARATORY" }, "geometry": { "type": "Point", "coordinates": [ -85.77599239756789, 38.221780377949692 ] } },
{ "type": "Feature", "id": 27, "properties": { "OBJECTID": 68.0, "LEVEL_": "E", "LOC_TYPE": "JCPS", "LOC": 500.0, "SCH_NAME": "PORTLAND ELEMENTARY", "ADDRESS": "3410 NORTHWESTERN PW", "CITY": "LOUISVILLE", "ST": "KY", "ZIP": 40212.0, "PHONE": "485-8313", "SCH_AB": "PORTLAND", "SCH_WEB": "http:\/\/schools.jefferson.kyschools.us\/Elementary\/Portland\/Index.html", "FACNAME": "PORTLAND ELEMENTARY" }, "geometry": { "type": "Point", "coordinates": [ -85.803266834611136, 38.274451206544306 ] } },
{ "type": "Feature", "id": 28, "properties": { "OBJECTID": 71.0, "LEVEL_": "E", "LOC_TYPE": "JCPS", "LOC": 530.0, "SCH_NAME": "ROOSEVELT-PERRY ELEMENTARY", "ADDRESS": "1606 MAGAZINE ST", "CITY": "LOUISVILLE", "ST": "KY", "ZIP": 40203.0, "PHONE": "485-8319", "SCH_AB": "ROOSEVELT-PERRY", "SCH_WEB": "http:\/\/schools.jefferson.kyschools.us\/Elementary\/RooseveltPerry\/index.html", "FACNAME": "ROOSEVELT\/PERRY ELEMENTARY" }, "geometry": { "type": "Point", "coordinates": [ -85.778753876689493, 38.249468356999664 ] } },
{ "type": "Feature", "id": 29, "properties": { "OBJECTID": 72.0, "LEVEL_": "E", "LOC_TYPE": "JCPS", "LOC": 560.0, "SCH_NAME": "RUTHERFORD ELEMENTARY", "ADDRESS": "301 W SOUTHLAND BV", "CITY": "LOUISVILLE", "ST": "KY", "ZIP": 40214.0, "PHONE": "485-8320", "SCH_AB": "RUTHERFORD", "SCH_WEB": "http:\/\/rutherford.jcps.schooldesk.net\/", "FACNAME": "RUTHERFORD ELEMENTARY" }, "geometry": { "type": "Point", "coordinates": [ -85.768208938106582, 38.172609242287038 ] } },
{ "type": "Feature", "id": 30, "properties": { "OBJECTID": 75.0, "LEVEL_": "E", "LOC_TYPE": "JCPS", "LOC": 580.0, "SCH_NAME": "SEMPLE ELEMENTARY", "ADDRESS": "724 DENMARK ST", "CITY": "LOUISVILLE", "ST": "KY", "ZIP": 40215.0, "PHONE": "485-8324", "SCH_AB": "SEMPLE", "SCH_WEB": "http:\/\/schools.jefferson.kyschools.us\/Elementary\/Semple\/index.html", "FACNAME": "SEMPLE ELEMENTARY" }, "geometry": { "type": "Point", "coordinates": [ -85.772018611292651, 38.195489415017839 ] } },
{ "type": "Feature", "id": 31, "properties": { "OBJECTID": 77.0, "LEVEL_": "E", "LOC_TYPE": "JCPS", "LOC": 610.0, "SCH_NAME": "SHELBY TRADITIONAL ACADEMY", "ADDRESS": "735 ZIEGLER ST", "CITY": "LOUISVILLE", "ST": "KY", "ZIP": 40217.0, "PHONE": "485-8327", "SCH_AB": "SHELBY", "SCH_WEB": "http:\/\/schools.jefferson.kyschools.us\/Elementary\/Shelby\/index.html", "FACNAME": "SHELBY TRADITIONAL ACADEMY" }, "geometry": { "type": "Point", "coordinates": [ -85.744754709988769, 38.222977877469503 ] } },
{ "type": "Feature", "id": 32, "properties": { "OBJECTID": 88.0, "LEVEL_": "E", "LOC_TYPE": "JCPS", "LOC": 182.0, "SCH_NAME": "WHEATLEY ELEMENTARY", "ADDRESS": "1107 S 17TH ST", "CITY": "LOUISVILLE", "ST": "KY", "ZIP": 40210.0, "PHONE": "485-8348", "SCH_AB": "WHEATLEY", "SCH_WEB": "http:\/\/schools.jefferson.kyschools.us\/Elementary\/Wheatley\/index.html", "FACNAME": "WHEATLEY ELEMENTARY" }, "geometry": { "type": "Point", "coordinates": [ -85.78277522869756, 38.239245686047347 ] } },
{ "type": "Feature", "id": 33, "properties": { "OBJECTID": 93.0, "LEVEL_": "E", "LOC_TYPE": "JCPS", "LOC": 374.0, "SCH_NAME": "YOUNG ELEMENTARY", "ADDRESS": "3526 W MUHAMMAD ALI BV", "CITY": "LOUISVILLE", "ST": "KY", "ZIP": 40212.0, "PHONE": "485-8354", "SCH_AB": "YOUNG", "SCH_WEB": "http:\/\/young-elementary-school.echalksites.com\/", "FACNAME": "YOUNG ELEMENTARY" }, "geometry": { "type": "Point", "coordinates": [ -85.810253084463795, 38.256597685160749 ] } },
{ "type": "Feature", "id": 34, "properties": { "OBJECTID": 95.0, "LEVEL_": "H", "LOC_TYPE": "JCPS", "LOC": 452.0, "SCH_NAME": "ACKERLY-BINGHAM GUIDANCE ELEM", "ADDRESS": "200 E CHESTNUT ST", "CITY": "LOUISVILLE", "ST": "KY", "ZIP": 40202.0, "PHONE": "588-6941", "SCH_AB": "ACKERLY\/BINGHAM ELEM", "SCH_WEB": null, "FACNAME": "ACKERLY\/BINGHAM GUIDANCE ELEM" }, "geometry": { "type": "Point", "coordinates": [ -85.750805970100899, 38.247845568177283 ] } },
{ "type": "Feature", "id": 35, "properties": { "OBJECTID": 96.0, "LEVEL_": "H", "LOC_TYPE": "JCPS", "LOC": 456.0, "SCH_NAME": "ACKERLY-BINGHAM HIGH", "ADDRESS": "200 E CHESTNUT ST", "CITY": "LOUISVILLE", "ST": "KY", "ZIP": 40202.0, "PHONE": "588-6941", "SCH_AB": "ACKERLY\/BINGHAM HIGH", "SCH_WEB": null, "FACNAME": "ACKERLY\/BINGHAM HIGH" }, "geometry": { "type": "Point", "coordinates": [ -85.750805970100899, 38.247845568177283 ] } },
{ "type": "Feature", "id": 36, "properties": { "OBJECTID": 100.0, "LEVEL_": "H", "LOC_TYPE": "JCPS", "LOC": 28.0, "SCH_NAME": "BOYS' HAVEN", "ADDRESS": "2301 GOLDSMITH LN", "CITY": "LOUISVILLE", "ST": "KY", "ZIP": 40218.0, "PHONE": "429-5408", "SCH_AB": "BOYS' HAVEN", "SCH_WEB": "http:\/\/www.boyshaven.org\/", "FACNAME": "BOYS' HAVEN" }, "geometry": { "type": "Point", "coordinates": [ -85.667502301987824, 38.211563401389995 ] } },
{ "type": "Feature", "id": 37, "properties": { "OBJECTID": 101.0, "LEVEL_": "H", "LOC_TYPE": "JCPS", "LOC": 129.0, "SCH_NAME": "BRECKINRIDGE METROPOLITAN", "ADDRESS": "1128 E BROADWAY", "CITY": "LOUISVILLE", "ST": "KY", "ZIP": 40204.0, "PHONE": "485-6678", "SCH_AB": "BRECKINRIDGE METRO", "SCH_WEB": "https:\/\/www.jefferson.kyschools.us\/schools\/school-profile-pages", "FACNAME": "BRECKINRIDGE METROPOLITAN" }, "geometry": { "type": "Point", "coordinates": [ -85.732507277632905, 38.243708882387295 ] } },
{ "type": "Feature", "id": 38, "properties": { "OBJECTID": 102.0, "LEVEL_": "H", "LOC_TYPE": "JCPS", "LOC": 25.0, "SCH_NAME": "USPIRITUS BROOKLAWN", "ADDRESS": "2125 GOLDSMITH LN", "CITY": "LOUISVILLE", "ST": "KY", "ZIP": 40218.0, "PHONE": "452-1612", "SCH_AB": "BROOKLAWN", "SCH_WEB": "http:\/\/uspiritus.org\/index.html", "FACNAME": "USPIRITUS BROOKLAWN" }, "geometry": { "type": "Point", "coordinates": [ -85.674065370837582, 38.207747244091387 ] } },
{ "type": "Feature", "id": 39, "properties": { "OBJECTID": 104.0, "LEVEL_": "H", "LOC_TYPE": "JCPS", "LOC": 917.0, "SCH_NAME": "CHURCHILL PARK", "ADDRESS": "435 BOXLEY AV", "CITY": "LOUISVILLE", "ST": "KY", "ZIP": 40209.0, "PHONE": "485-8229", "SCH_AB": "CHURCHILL PARK", "SCH_WEB": "https:\/\/www.jefferson.kyschools.us\/schools\/profiles\/churchill-park-rehab", "FACNAME": "CHURCHILL PARK" }, "geometry": { "type": "Point", "coordinates": [ -85.751311931774666, 38.205690365137812 ] } },
{ "type": "Feature", "id": 40, "properties": { "OBJECTID": 105.0, "LEVEL_": "H", "LOC_TYPE": "JCPS", "LOC": 37.0, "SCH_NAME": "DAWSON ORMAN EDUCATION CENTER", "ADDRESS": "900 S FLOYD ST", "CITY": "LOUISVILLE", "ST": "KY", "ZIP": 40203.0, "PHONE": "485-7008", "SCH_AB": "DAWSON ORMAN", "SCH_WEB": null, "FACNAME": "DAWSON ORMAN EDUCATION CENTER" }, "geometry": { "type": "Point", "coordinates": [ -85.750908506485942, 38.240467791866358 ] } },
{ "type": "Feature", "id": 41, "properties": { "OBJECTID": 106.0, "LEVEL_": "H", "LOC_TYPE": "JCPS", "LOC": 70.0, "SCH_NAME": "DUVALLE EDUCATION CENTER", "ADDRESS": "3610 BOHNE AV", "CITY": "LOUISVILLE", "ST": "KY", "ZIP": 40211.0, "PHONE": "485-6771", "SCH_AB": "DUVALLE", "SCH_WEB": "http:\/\/schools.jefferson.kyschools.us\/Special\/DuValle\/index.html", "FACNAME": "DUVALLE EDUCATION CENTER" }, "geometry": { "type": "Point", "coordinates": [ -85.816351499191299, 38.228294630008421 ] } },
{ "type": "Feature", "id": 42, "properties": { "OBJECTID": 107.0, "LEVEL_": "H", "LOC_TYPE": "JCPS", "LOC": 768.0, "SCH_NAME": "HOME OF THE INNOCENTS", "ADDRESS": "1100 E MARKET ST", "CITY": "LOUISVILLE", "ST": "KY", "ZIP": 40206.0, "PHONE": "596-1291", "SCH_AB": "HOME OF THE INNOCENTS", "SCH_WEB": "http:\/\/schools.jefferson.kyschools.us\/Special\/SAC\/homeinnocents.html", "FACNAME": "HOME OF THE INNOCENTS" }, "geometry": { "type": "Point", "coordinates": [ -85.732309246272891, 38.252348621017731 ] } },
{ "type": "Feature", "id": 43, "properties": { "OBJECTID": 108.0, "LEVEL_": "H", "LOC_TYPE": "JCPS", "LOC": 951.0, "SCH_NAME": "JEFFERSON COUNTY HIGH", "ADDRESS": "900 S FLOYD ST", "CITY": "LOUISVILLE", "ST": "KY", "ZIP": 40203.0, "PHONE": "485-3173", "SCH_AB": "JEFFERSON COUNTY", "SCH_WEB": "http:\/\/www.jchsky.net\/", "FACNAME": "JEFFERSON COUNTY HIGH" }, "geometry": { "type": "Point", "coordinates": [ -85.751034747672207, 38.239752163458206 ] } },
{ "type": "Feature", "id": 44, "properties": { "OBJECTID": 109.0, "LEVEL_": "H", "LOC_TYPE": "JCPS", "LOC": 454.0, "SCH_NAME": "KELLER SCHOOL", "ADDRESS": "911 S BROOK ST", "CITY": "LOUISVILLE", "ST": "KY", "ZIP": 40292.0, "PHONE": "583-0420", "SCH_AB": "KELLER", "SCH_WEB": null, "FACNAME": "KELLER SCHOOL" }, "geometry": { "type": "Point", "coordinates": [ -85.751972745912823, 38.240687326804057 ] } },
{ "type": "Feature", "id": 45, "properties": { "OBJECTID": 113.0, "LEVEL_": "H", "LOC_TYPE": "JCPS", "LOC": 465.0, "SCH_NAME": "HEUSER HEARING & LANGUAGE ACADEMY", "ADDRESS": "117 E KENTUCKY ST", "CITY": "LOUISVILLE", "ST": "KY", "ZIP": 40203.0, "PHONE": "5153323", "SCH_AB": "HEUSER", "SCH_WEB": "https:\/\/thehearinginstitute.org\/academy\/", "FACNAME": "HEUSER HEARING & LANGUAGE ACADEMY" }, "geometry": { "type": "Point", "coordinates": [ -85.754064277191986, 38.239019735210562 ] } },
{ "type": "Feature", "id": 46, "properties": { "OBJECTID": 114.0, "LEVEL_": "H", "LOC_TYPE": "JCPS", "LOC": 463.0, "SCH_NAME": "LOUISVILLE METRO YOUTH CENTER", "ADDRESS": "720 W JEFFERSON ST", "CITY": "LOUISVILLE", "ST": "KY", "ZIP": 40202.0, "PHONE": "485-3173", "SCH_AB": "LOUISVILLE METRO", "SCH_WEB": null, "FACNAME": "LOUISVILLE METRO YOUTH CENTER" }, "geometry": { "type": "Point", "coordinates": [ -85.763160831897238, 38.254217970032393 ] } },
{ "type": "Feature", "id": 47, "properties": { "OBJECTID": 117.0, "LEVEL_": "H", "LOC_TYPE": "JCPS", "LOC": 784.0, "SCH_NAME": "CARITAS PEACE ACADEMY", "ADDRESS": "2020 NEWBURG RD", "CITY": "LOUISVILLE", "ST": "KY", "ZIP": 40205.0, "PHONE": "479-4180", "SCH_AB": "PEACE ACADEMY", "SCH_WEB": "http:\/\/schools.jefferson.kyschools.us\/Special\/SAC\/peace.html", "FACNAME": "CARITAS PEACE ACADEMY" }, "geometry": { "type": "Point", "coordinates": [ -85.70973628930517, 38.21742113342961 ] } },
{ "type": "Feature", "id": 48, "properties": { "OBJECTID": 118.0, "LEVEL_": "H", "LOC_TYPE": "JCPS", "LOC": 110.0, "SCH_NAME": "WESTERN DAY TREATMENT CENTER", "ADDRESS": "1900 S 7TH ST", "CITY": "LOUISVILLE", "ST": "KY", "ZIP": 40201.0, "PHONE": "447-9145", "SCH_AB": "WESTERN DAY", "SCH_WEB": "https:\/\/www.jefferson.kyschools.us\/schools\/profiles\/western-day-treatment", "FACNAME": "WESTERN DAY TREATMENT CENTER" }, "geometry": { "type": "Point", "coordinates": [ -85.776696803107654, 38.221755129306466 ] } },
{ "type": "Feature", "id": 49, "properties": { "OBJECTID": 120.0, "LEVEL_": "H", "LOC_TYPE": "JCPS", "LOC": 29.0, "SCH_NAME": "ST JOSEPH CHILDREN'S HOME", "ADDRESS": "2823 FRANKFORT AV", "CITY": "LOUISVILLE", "ST": "KY", "ZIP": 40206.0, "PHONE": "893-0241", "SCH_AB": "ST. JOSEPH", "SCH_WEB": "http:\/\/sjkids.org\/", "FACNAME": "ST JOSEPH CHILDREN'S HOME" }, "geometry": { "type": "Point", "coordinates": [ -85.689614596242492, 38.256416883164853 ] } },
{ "type": "Feature", "id": 50, "properties": { "OBJECTID": 123.0, "LEVEL_": "H", "LOC_TYPE": "JCPS", "LOC": 124.0, "SCH_NAME": "U OF L P.A.C.T. PROGRAM", "ADDRESS": "100 CARDINAL AV", "CITY": "LOUISVILLE", "ST": "KY", "ZIP": 40292.0, "PHONE": "852-6402", "SCH_AB": "U OF L P.A.C.T.", "SCH_WEB": null, "FACNAME": "U OF L P.A.C.T. PROGRAM" }, "geometry": { "type": "Point", "coordinates": [ -85.757603675653073, 38.219835235411814 ] } },
{ "type": "Feature", "id": 51, "properties": { "OBJECTID": 126.0, "LEVEL_": "M", "LOC_TYPE": "JCPS", "LOC": 40.0, "SCH_NAME": "BARRET TRADITIONAL MIDDLE", "ADDRESS": "2561 GRINSTEAD DR", "CITY": "LOUISVILLE", "ST": "KY", "ZIP": 40206.0, "PHONE": "485-8207", "SCH_AB": "BARRET", "SCH_WEB": "http:\/\/schools.jefferson.kyschools.us\/Middle\/Barret\/index.html", "FACNAME": "BARRET TRADITIONAL MIDDLE" }, "geometry": { "type": "Point", "coordinates": [ -85.69578872073842, 38.24947115634609 ] } },
{ "type": "Feature", "id": 52, "properties": { "OBJECTID": 131.0, "LEVEL_": "M", "LOC_TYPE": "JCPS", "LOC": 320.0, "SCH_NAME": "HIGHLAND MIDDLE", "ADDRESS": "1700 NORRIS PL", "CITY": "LOUISVILLE", "ST": "KY", "ZIP": 40205.0, "PHONE": "485-8266", "SCH_AB": "HIGHLAND", "SCH_WEB": "https:\/\/www.jefferson.kyschools.us\/schools\/profiles\/highland", "FACNAME": "HIGHLAND MIDDLE" }, "geometry": { "type": "Point", "coordinates": [ -85.706222237993785, 38.22341878270543 ] } },
{ "type": "Feature", "id": 53, "properties": { "OBJECTID": 132.0, "LEVEL_": "M", "LOC_TYPE": "JCPS", "LOC": 730.0, "SCH_NAME": "OLMSTED ACADEMY SOUTH", "ADDRESS": "5650 SOUTHERN PWY", "CITY": "LOUISVILLE", "ST": "KY", "ZIP": 40214.0, "PHONE": "485-8270", "SCH_AB": "OLMSTED SOUTH", "SCH_WEB": "http:\/\/schools.jefferson.kyschools.us\/Middle\/OlmstedSouth\/index.html", "FACNAME": "OLMSTED ACADEMY SOUTH" }, "geometry": { "type": "Point", "coordinates": [ -85.778912294151468, 38.172236964905551 ] } },
{ "type": "Feature", "id": 54, "properties": { "OBJECTID": 133.0, "LEVEL_": "M", "LOC_TYPE": "JCPS", "LOC": 396.0, "SCH_NAME": "JEFF CNTY TRADITIONAL MIDDLE", "ADDRESS": "1418 MORTON AV", "CITY": "LOUISVILLE", "ST": "KY", "ZIP": 40204.0, "PHONE": "485-8272", "SCH_AB": "JCTMS", "SCH_WEB": "http:\/schools.jefferson.kyschools.us\/Middle\/JCTMS\/index.html", "FACNAME": "JEFF CNTY TRADITIONAL MIDDLE" }, "geometry": { "type": "Point", "coordinates": [ -85.727275946567786, 38.240136933973652 ] } },
{ "type": "Feature", "id": 55, "properties": { "OBJECTID": 134.0, "LEVEL_": "M", "LOC_TYPE": "JCPS", "LOC": 470.0, "SCH_NAME": "JOHNSON TRADITIONAL MIDDLE", "ADDRESS": "2509 WILSON AV", "CITY": "LOUISVILLE", "ST": "KY", "ZIP": 40210.0, "PHONE": "485-8277", "SCH_AB": "JOHNSON", "SCH_WEB": "http:\/schools.jefferson.kyschools.us\/Middle\/Johnson\/index.html", "FACNAME": "JOHNSON TRADITIONAL MIDDLE" }, "geometry": { "type": "Point", "coordinates": [ -85.79550495413541, 38.235591861189441 ] } },
{ "type": "Feature", "id": 56, "properties": { "OBJECTID": 138.0, "LEVEL_": "M", "LOC_TYPE": "JCPS", "LOC": 340.0, "SCH_NAME": "MEYZEEK MIDDLE", "ADDRESS": "828 S JACKSON ST", "CITY": "LOUISVILLE", "ST": "KY", "ZIP": 40203.0, "PHONE": "485-8299", "SCH_AB": "MEYZEEK", "SCH_WEB": "http:\/\/schools.jefferson.kyschools.us\/Middle\/Meyzeek\/index.html", "FACNAME": "MEYZEEK MIDDLE" }, "geometry": { "type": "Point", "coordinates": [ -85.746918609579978, 38.241702136673972 ] } },
{ "type": "Feature", "id": 57, "properties": { "OBJECTID": 140.0, "LEVEL_": "M", "LOC_TYPE": "JCPS", "LOC": 435.0, "SCH_NAME": "NOE MIDDLE", "ADDRESS": "121 W LEE ST", "CITY": "LOUISVILLE", "ST": "KY", "ZIP": 40208.0, "PHONE": "485-8307", "SCH_AB": "NOE", "SCH_WEB": "http:\/\/schools.jefferson.kyschools.us\/Middle\/Noe\/index.html", "FACNAME": "NOE MIDDLE" }, "geometry": { "type": "Point", "coordinates": [ -85.758244458720156, 38.223452183342147 ] } },
{ "type": "Feature", "id": 58, "properties": { "OBJECTID": 141.0, "LEVEL_": "M", "LOC_TYPE": "JCPS", "LOC": 620.0, "SCH_NAME": "OLMSTED ACADEMY NORTH", "ADDRESS": "4530 BELLEVUE AV", "CITY": "LOUISVILLE", "ST": "KY", "ZIP": 40215.0, "PHONE": "485-8331", "SCH_AB": "OLMSTED NORTH", "SCH_WEB": "http:\/\/schools.jefferson.kyschools.us\/Middle\/OlmstedNorth\/index.html", "FACNAME": "OLMSTED ACADEMY NORTH" }, "geometry": { "type": "Point", "coordinates": [ -85.774500437822255, 38.187094667057842 ] } },
{ "type": "Feature", "id": 59, "properties": { "OBJECTID": 144.0, "LEVEL_": "M", "LOC_TYPE": "JCPS", "LOC": 710.0, "SCH_NAME": "WESTERN MIDDLE", "ADDRESS": "2201 W MAIN ST", "CITY": "LOUISVILLE", "ST": "KY", "ZIP": 40212.0, "PHONE": "485-8345", "SCH_AB": "WESTERN MIDDLE", "SCH_WEB": "http:\/\/schools.jefferson.kyschools.us\/Middle\/Western\/index.html", "FACNAME": "WESTERN MIDDLE" }, "geometry": { "type": "Point", "coordinates": [ -85.787249990811262, 38.261095493815851 ] } },
{ "type": "Feature", "id": 60, "properties": { "OBJECTID": 146.0, "LEVEL_": "S", "LOC_TYPE": "JCPS", "LOC": 18.0, "SCH_NAME": "ATHERTON HIGH", "ADDRESS": "3000 DUNDEE RD", "CITY": "LOUISVILLE", "ST": "KY", "ZIP": 40205.0, "PHONE": "485-8202", "SCH_AB": "ATHERTON", "SCH_WEB": "https:\/\/www.jefferson.kyschools.us\/schools\/profiles\/atherton", "FACNAME": "ATHERTON HIGH" }, "geometry": { "type": "Point", "coordinates": [ -85.687769980103596, 38.214088044108927 ] } },
{ "type": "Feature", "id": 61, "properties": { "OBJECTID": 149.0, "LEVEL_": "S", "LOC_TYPE": "JCPS", "LOC": 179.0, "SCH_NAME": "CENTRAL HIGH", "ADDRESS": "1130 W CHESTNUT ST", "CITY": "LOUISVILLE", "ST": "KY", "ZIP": 40203.0, "PHONE": "485-8226", "SCH_AB": "CENTRAL", "SCH_WEB": "http:\/\/schools.jefferson.kyschools.us\/High\/Central\/index.html", "FACNAME": "CENTRAL HIGH" }, "geometry": { "type": "Point", "coordinates": [ -85.770404468957295, 38.249752005353059 ] } },
{ "type": "Feature", "id": 62, "properties": { "OBJECTID": 154.0, "LEVEL_": "S", "LOC_TYPE": "JCPS", "LOC": 335.0, "SCH_NAME": "IROQUOIS HIGH", "ADDRESS": "4615 TAYLOR BV", "CITY": "LOUISVILLE", "ST": "KY", "ZIP": 40215.0, "PHONE": "485-8269", "SCH_AB": "IROQUOIS", "SCH_WEB": "http:\/\/jcps.jefferson.k12.ky.us\/iroquoishigh\/", "FACNAME": "IROQUOIS HIGH" }, "geometry": { "type": "Point", "coordinates": [ -85.781746946125111, 38.174486720153467 ] } },
{ "type": "Feature", "id": 63, "properties": { "OBJECTID": 156.0, "LEVEL_": "S", "LOC_TYPE": "JCPS", "LOC": 47.0, "SCH_NAME": "MALE TRADITIONAL HIGH", "ADDRESS": "4409 PRESTON HY", "CITY": "LOUISVILLE", "ST": "KY", "ZIP": 40213.0, "PHONE": "485-8292", "SCH_AB": "MALE", "SCH_WEB": "http:\/\/schools.jefferson.kyschools.us\/High\/Male\/index.html", "FACNAME": "MALE TRADITIONAL HIGH" }, "geometry": { "type": "Point", "coordinates": [ -85.720523076034723, 38.185201505335115 ] } },
{ "type": "Feature", "id": 64, "properties": { "OBJECTID": 157.0, "LEVEL_": "S", "LOC_TYPE": "JCPS", "LOC": 200.0, "SCH_NAME": "DUPONT MANUAL HIGH", "ADDRESS": "120 W LEE ST", "CITY": "LOUISVILLE", "ST": "KY", "ZIP": 40208.0, "PHONE": "485-8241", "SCH_AB": "DUPONT MANUAL", "SCH_WEB": "http:\/\/schools.jefferson.kyschools.us\/High\/Manual\/index.htm", "FACNAME": "DUPONT MANUAL HIGH" }, "geometry": { "type": "Point", "coordinates": [ -85.758832714099754, 38.222210941458513 ] } },
{ "type": "Feature", "id": 65, "properties": { "OBJECTID": 160.0, "LEVEL_": "C", "LOC_TYPE": "JCPS", "LOC": 590.0, "SCH_NAME": "THE ACADEMY @ SHAWNEE", "ADDRESS": "4001 HERMAN ST", "CITY": "LOUISVILLE", "ST": "KY", "ZIP": 40212.0, "PHONE": "485-8326", "SCH_AB": "SHAWNEE", "SCH_WEB": "http:\/\/schools.jefferson.kyschools.us\/High\/AcademyShawnee\/index.html", "FACNAME": "THE ACADEMY @ SHAWNEE" }, "geometry": { "type": "Point", "coordinates": [ -85.815337498462569, 38.260598923877744 ] } },
{ "type": "Feature", "id": 66, "properties": { "OBJECTID": 165.0, "LEVEL_": "S", "LOC_TYPE": "JCPS", "LOC": 940.0, "SCH_NAME": "YOUTH PERFORMING ARTS SCHOOL", "ADDRESS": "1517 S 2ND ST", "CITY": "LOUISVILLE", "ST": "KY", "ZIP": 40208.0, "PHONE": "485-8355", "SCH_AB": "YPAS", "SCH_WEB": "http:\/\/schools.jefferson.kyschools.us\/Special\/YPAS\/index.html", "FACNAME": "YOUTH PERFORMING ARTS SCHOOL" }, "geometry": { "type": "Point", "coordinates": [ -85.7583094831935, 38.225280907309525 ] } },
{ "type": "Feature", "id": 67, "properties": { "OBJECTID": 172.0, "LEVEL_": "S", "LOC_TYPE": "JCPS", "LOC": 940.0, "SCH_NAME": "SAM MEYERS HALL", "ADDRESS": "1517 S 2ND ST", "CITY": "LOUISVILLE", "ST": "KY", "ZIP": 40208.0, "PHONE": "485-8355", "SCH_AB": "SAM MEYERS", "SCH_WEB": null, "FACNAME": "SAM MEYERS HALL" }, "geometry": { "type": "Point", "coordinates": [ -85.758361566930759, 38.224333079447057 ] } },
{ "type": "Feature", "id": 68, "properties": { "OBJECTID": 174.0, "LEVEL_": "C", "LOC_TYPE": "PRIVATE SCHOOL", "LOC": 5118.0, "SCH_NAME": "LOUISVILLE ADVENTIST ACADEMY", "ADDRESS": "2988 NEWBURG RD", "CITY": "LOUISVILLE", "ST": "KY", "ZIP": 40205.0, "PHONE": "452-2965", "SCH_AB": "LOUISVILLE ADVENTIST", "SCH_WEB": "http:\/\/louisville22.adventistschoolconnect.org\/", "FACNAME": "LOUISVILLE ADVENTIST ACADEMY" }, "geometry": { "type": "Point", "coordinates": [ -85.693354988337376, 38.204925555561026 ] } },
{ "type": "Feature", "id": 69, "properties": { "OBJECTID": 175.0, "LEVEL_": "E", "LOC_TYPE": "PAROCHIAL SCHOOL", "LOC": 6350.0, "SCH_NAME": "ASCENSION SCHOOL", "ADDRESS": "4600 LYNNBROOK DR", "CITY": "LOUISVILLE", "ST": "KY", "ZIP": 40220.0, "PHONE": "451-2535", "SCH_AB": "ASCENSION", "SCH_WEB": "http:\/\/school.ascension-parish.com\/", "FACNAME": "ASCENSION SCHOOL" }, "geometry": { "type": "Point", "coordinates": [ -85.616479178590225, 38.233088915056065 ] } },
{ "type": "Feature", "id": 70, "properties": { "OBJECTID": 176.0, "LEVEL_": "E", "LOC_TYPE": "PRIVATE SCHOOL", "LOC": 5596.0, "SCH_NAME": "CHRISTIAN ACADEMY ROCK CREEK", "ADDRESS": "3100 ROCK CREEK DR", "CITY": "LOUISVILLE", "ST": "KY", "ZIP": 40207.0, "PHONE": "897-3372", "SCH_AB": "CHRISTIAN\/ROCK CREEK", "SCH_WEB": "http:\/\/caschools.us\/rc", "FACNAME": "CHRISTIAN ACADEMY ROCK CREEK" }, "geometry": { "type": "Point", "coordinates": [ -85.669254194391783, 38.242525007802151 ] } },
{ "type": "Feature", "id": 71, "properties": { "OBJECTID": 182.0, "LEVEL_": "E", "LOC_TYPE": "PRIVATE SCHOOL", "LOC": 5902.0, "SCH_NAME": "JEWISH DAY SCHOOL", "ADDRESS": "3700 DUTCHMANS LN", "CITY": "LOUISVILLE", "ST": "KY", "ZIP": 40205.0, "PHONE": "451-3122", "SCH_AB": "JEWISH DAY", "SCH_WEB": null, "FACNAME": "JEWISH DAY SCHOOL" }, "geometry": { "type": "Point", "coordinates": [ -85.648349540089086, 38.226248357306844 ] } },
{ "type": "Feature", "id": 72, "properties": { "OBJECTID": 185.0, "LEVEL_": "S", "LOC_TYPE": "PAROCHIAL SCHOOL", "LOC": 6263.0, "SCH_NAME": "PRESENTATION ACADEMY HIGH", "ADDRESS": "861 S 4TH ST", "CITY": "LOUISVILLE", "ST": "KY", "ZIP": 40203.0, "PHONE": "583-5935", "SCH_AB": "PRESENTATION", "SCH_WEB": "http:\/\/www.presentationacademy.org\/", "FACNAME": "PRESENTATION ACADEMY HIGH" }, "geometry": { "type": "Point", "coordinates": [ -85.758728496143021, 38.24210878085843 ] } },
{ "type": "Feature", "id": 73, "properties": { "OBJECTID": 188.0, "LEVEL_": "E", "LOC_TYPE": "PRIVATE SCHOOL", "LOC": 6006.0, "SCH_NAME": "DE PAUL SCHOOL", "ADDRESS": "1925 DUKER AV", "CITY": "LOUISVILLE", "ST": "KY", "ZIP": 40205.0, "PHONE": "459-6131", "SCH_AB": "DE PAUL", "SCH_WEB": "http:\/\/depaulschool.org\/", "FACNAME": "DE PAUL SCHOOL" }, "geometry": { "type": "Point", "coordinates": [ -85.705520296205464, 38.229500415745569 ] } },
{ "type": "Feature", "id": 74, "properties": { "OBJECTID": 189.0, "LEVEL_": "C", "LOC_TYPE": "PAROCHIAL SCHOOL", "LOC": 6774.0, "SCH_NAME": "NATIVITY ACADEMY AT ST BONIFAC", "ADDRESS": "529 E LIBERTY ST", "CITY": "LOUISVILLE", "ST": "KY", "ZIP": 40202.0, "PHONE": "562-2190", "SCH_AB": "NATIVITY ACADEMY", "SCH_WEB": "http:\/\/www.nativitylouisville.org\/", "FACNAME": "NATIVITY ACADEMY AT ST BONIFAC" }, "geometry": { "type": "Point", "coordinates": [ -85.743801492343096, 38.251414677251788 ] } },
{ "type": "Feature", "id": 75, "properties": { "OBJECTID": 192.0, "LEVEL_": "C", "LOC_TYPE": "PAROCHIAL SCHOOL", "LOC": 6453.0, "SCH_NAME": "ST JAMES", "ADDRESS": "1818 EDENSIDE AV", "CITY": "LOUISVILLE", "ST": "KY", "ZIP": 40204.0, "PHONE": "454-0330", "SCH_AB": "ST. JAMES", "SCH_WEB": "http:\/\/www.stjamesbluejays.com\/", "FACNAME": "ST JAMES" }, "geometry": { "type": "Point", "coordinates": [ -85.711521130646631, 38.231932362574923 ] } },
{ "type": "Feature", "id": 76, "properties": { "OBJECTID": 193.0, "LEVEL_": "C", "LOC_TYPE": "PAROCHIAL SCHOOL", "LOC": 6503.0, "SCH_NAME": "ST LEONARD", "ADDRESS": "440 ZORN AV", "CITY": "LOUISVILLE", "ST": "KY", "ZIP": 40206.0, "PHONE": "897-5265", "SCH_AB": "ST. LEONARD", "SCH_WEB": "http:\/\/www.stleonardlouisville-school.org\/", "FACNAME": "ST LEONARD" }, "geometry": { "type": "Point", "coordinates": [ -85.689767135516604, 38.263825312211104 ] } },
{ "type": "Feature", "id": 77, "properties": { "OBJECTID": 195.0, "LEVEL_": "S", "LOC_TYPE": "PAROCHIAL SCHOOL", "LOC": 6386.0, "SCH_NAME": "ASSUMPTION HIGH", "ADDRESS": "2170 TYLER LN", "CITY": "LOUISVILLE", "ST": "KY", "ZIP": 40205.0, "PHONE": "458-9551", "SCH_AB": "ASSUMPTION", "SCH_WEB": "http:\/\/www.ahsrockets.org\/", "FACNAME": "ASSUMPTION HIGH" }, "geometry": { "type": "Point", "coordinates": [ -85.67784774587318, 38.217104911267505 ] } },
{ "type": "Feature", "id": 78, "properties": { "OBJECTID": 197.0, "LEVEL_": "E", "LOC_TYPE": "PRIVATE SCHOOL", "LOC": 5705.0, "SCH_NAME": "EMMA L MINNIS JR ACADEMY", "ADDRESS": "1939 MAGAZINE ST", "CITY": "LOUISVILLE", "ST": "KY", "ZIP": 40203.0, "PHONE": "774-2108", "SCH_AB": "EMMA L MINNIS", "SCH_WEB": "http:\/\/www.emmalminnis22.adventistschoolconnect.org\/", "FACNAME": "EMMA L MINNIS JR ACADEMY" }, "geometry": { "type": "Point", "coordinates": [ -85.784987735612091, 38.250839939585994 ] } },
{ "type": "Feature", "id": 79, "properties": { "OBJECTID": 198.0, "LEVEL_": "C", "LOC_TYPE": "PRIVATE SCHOOL", "LOC": 5176.0, "SCH_NAME": "KY SCHOOL FOR THE BLIND", "ADDRESS": "1867 FRANKFORT AV", "CITY": "LOUISVILLE", "ST": "KY", "ZIP": 40206.0, "PHONE": "897-1583", "SCH_AB": "KY SCHOOL FOR THE BLIND", "SCH_WEB": "http:\/\/www.ksb.k12.ky.us\/", "FACNAME": "KY SCHOOL FOR THE BLIND" }, "geometry": { "type": "Point", "coordinates": [ -85.712928767800733, 38.257721539287928 ] } },
{ "type": "Feature", "id": 80, "properties": { "OBJECTID": 204.0, "LEVEL_": "C", "LOC_TYPE": "PAROCHIAL SCHOOL", "LOC": 6593.0, "SCH_NAME": "ST STEPHEN MARTYR", "ADDRESS": "2931 PINDELL AV", "CITY": "LOUISVILLE", "ST": "KY", "ZIP": 40217.0, "PHONE": "635-7141", "SCH_AB": "ST. STEPHEN MARTYR", "SCH_WEB": "http:\/\/www.ssmartyr.org\/School.html", "FACNAME": "ST STEPHEN MARTYR" }, "geometry": { "type": "Point", "coordinates": [ -85.729055205397017, 38.208792476575887 ] } },
{ "type": "Feature", "id": 81, "properties": { "OBJECTID": 205.0, "LEVEL_": "H", "LOC_TYPE": "PRIVATE SCHOOL", "LOC": 5650.0, "SCH_NAME": "MEREDITH DUNN SCHOOL", "ADDRESS": "3023 MELBOURNE AV", "CITY": "LOUISVILLE", "ST": "KY", "ZIP": 40220.0, "PHONE": "456-5819", "SCH_AB": "MEREDITH DUNN", "SCH_WEB": "http:\/\/www.meredithdunnschool.org\/", "FACNAME": "MEREDITH DUNN SCHOOL" }, "geometry": { "type": "Point", "coordinates": [ -85.631808155102121, 38.218420633242246 ] } },
{ "type": "Feature", "id": 82, "properties": { "OBJECTID": 206.0, "LEVEL_": "C", "LOC_TYPE": "PRIVATE SCHOOL", "LOC": 5253.0, "SCH_NAME": "PORTLAND CHRISTIAN SCHOOL", "ADDRESS": "2500 PORTLAND AV", "CITY": "LOUISVILLE", "ST": "KY", "ZIP": 40212.0, "PHONE": "778-6114", "SCH_AB": "PORTLAND CHRISTIAN", "SCH_WEB": "http:\/\/portlandchristian.org\/", "FACNAME": "PORTLAND CHRISTIAN SCHOOL" }, "geometry": { "type": "Point", "coordinates": [ -85.789224381532975, 38.270392612608688 ] } },
{ "type": "Feature", "id": 83, "properties": { "OBJECTID": 207.0, "LEVEL_": "S", "LOC_TYPE": "PAROCHIAL SCHOOL", "LOC": 6205.0, "SCH_NAME": "ST FRANCES DESALES HIGH", "ADDRESS": "425 W KENWOOD DR", "CITY": "LOUISVILLE", "ST": "KY", "ZIP": 40214.0, "PHONE": "368-6519", "SCH_AB": "DESALES", "SCH_WEB": "http:\/\/www.desaleshighschool.com\/", "FACNAME": "ST FRANCES DESALES HIGH" }, "geometry": { "type": "Point", "coordinates": [ -85.774304832343176, 38.162314162164634 ] } },
{ "type": "Feature", "id": 84, "properties": { "OBJECTID": 213.0, "LEVEL_": "E", "LOC_TYPE": "PAROCHIAL SCHOOL", "LOC": 6423.0, "SCH_NAME": "ST FRANCIS OF ASSISI", "ADDRESS": "1938 ALFRESCO PL", "CITY": "LOUISVILLE", "ST": "KY", "ZIP": 40205.0, "PHONE": "459-3088", "SCH_AB": "ST. FRANCIS OF ASSISI", "SCH_WEB": "http:\/\/sfalouisville.org\/", "FACNAME": "ST FRANCIS OF ASSISI" }, "geometry": { "type": "Point", "coordinates": [ -85.697967439430855, 38.225840837026723 ] } },
{ "type": "Feature", "id": 85, "properties": { "OBJECTID": 214.0, "LEVEL_": "S", "LOC_TYPE": "PAROCHIAL SCHOOL", "LOC": 6633.0, "SCH_NAME": "ST XAVIER HIGH", "ADDRESS": "1609 POPLAR LEVEL RD", "CITY": "LOUISVILLE", "ST": "KY", "ZIP": 40217.0, "PHONE": "637-4712", "SCH_AB": "ST. XAVIER", "SCH_WEB": "http:\/\/www.saintx.com\/", "FACNAME": "ST XAVIER HIGH" }, "geometry": { "type": "Point", "coordinates": [ -85.726496257195706, 38.219124829933762 ] } },
{ "type": "Feature", "id": 86, "properties": { "OBJECTID": 218.0, "LEVEL_": "E", "LOC_TYPE": "PAROCHIAL SCHOOL", "LOC": 6273.0, "SCH_NAME": "SACRED HEART MODEL", "ADDRESS": "3107 LEXINGTON RD", "CITY": "LOUISVILLE", "ST": "KY", "ZIP": 40206.0, "PHONE": "896-3931", "SCH_AB": "SACRED HEART", "SCH_WEB": "https:\/\/www.shslou.org\/page.cfm?p=500", "FACNAME": "SACRED HEART MODEL" }, "geometry": { "type": "Point", "coordinates": [ -85.676816417400474, 38.249497735674424 ] } },
{ "type": "Feature", "id": 87, "properties": { "OBJECTID": 224.0, "LEVEL_": "C", "LOC_TYPE": "PAROCHIAL SCHOOL", "LOC": 6245.0, "SCH_NAME": "HOLY SPIRIT SCHOOL", "ADDRESS": "322 CANNONS LN", "CITY": "LOUISVILLE", "ST": "KY", "ZIP": 40206.0, "PHONE": "893-7700", "SCH_AB": "HOLY SPIRIT", "SCH_WEB": "http:\/\/www.hspiritschool.org\/", "FACNAME": "HOLY SPIRIT SCHOOL" }, "geometry": { "type": "Point", "coordinates": [ -85.668305220096357, 38.250671532746424 ] } },
{ "type": "Feature", "id": 88, "properties": { "OBJECTID": 225.0, "LEVEL_": "C", "LOC_TYPE": "PAROCHIAL SCHOOL", "LOC": 6773.0, "SCH_NAME": "JOHN PAUL II ACADEMY", "ADDRESS": "3525 GOLDSMITH LN", "CITY": "LOUISVILLE", "ST": "KY", "ZIP": 40218.0, "PHONE": "452-1712", "SCH_AB": "JOHN PAUL II", "SCH_WEB": "http:\/\/www.john-paul-academy.org\/", "FACNAME": "JOHN PAUL II ACADEMY" }, "geometry": { "type": "Point", "coordinates": [ -85.651485093644936, 38.208925338492556 ] } },
{ "type": "Feature", "id": 89, "properties": { "OBJECTID": 226.0, "LEVEL_": "C", "LOC_TYPE": "PAROCHIAL SCHOOL", "LOC": 6288.0, "SCH_NAME": "ST MARTHA", "ADDRESS": "2825 KLONDIKE LN", "CITY": "LOUISVILLE", "ST": "KY", "ZIP": 40218.0, "PHONE": "491-3171", "SCH_AB": "ST. MARTHA", "SCH_WEB": "http:\/\/www.stmarthaschool.org\/", "FACNAME": "ST MARTHA" }, "geometry": { "type": "Point", "coordinates": [ -85.641540632169352, 38.20329972199923 ] } },
{ "type": "Feature", "id": 90, "properties": { "OBJECTID": 228.0, "LEVEL_": "C", "LOC_TYPE": "PAROCHIAL SCHOOL", "LOC": 6573.0, "SCH_NAME": "ST RAPHAEL", "ADDRESS": "2131 LANCASHIRE AV", "CITY": "LOUISVILLE", "ST": "KY", "ZIP": 40205.0, "PHONE": "456-1541", "SCH_AB": "ST. RAPHAEL", "SCH_WEB": "http:\/\/www.edline.net\/pages\/st__raphael_school\/", "FACNAME": "ST RAPHAEL" }, "geometry": { "type": "Point", "coordinates": [ -85.6770141544946, 38.215736528198434 ] } },
{ "type": "Feature", "id": 91, "properties": { "OBJECTID": 231.0, "LEVEL_": "S", "LOC_TYPE": "PAROCHIAL SCHOOL", "LOC": 6283.0, "SCH_NAME": "SACRED HEART ACADEMY", "ADDRESS": "3175 LEXINGTON RD", "CITY": "LOUISVILLE", "ST": "KY", "ZIP": 40206.0, "PHONE": "897-6097", "SCH_AB": "SACRED HEART", "SCH_WEB": "https:\/\/www.shslou.org\/page.cfm?p=499", "FACNAME": "SACRED HEART ACADEMY" }, "geometry": { "type": "Point", "coordinates": [ -85.673945160626033, 38.250549008350767 ] } },
{ "type": "Feature", "id": 92, "properties": { "OBJECTID": 232.0, "LEVEL_": "C", "LOC_TYPE": "PRIVATE SCHOOL", "LOC": 0.0, "SCH_NAME": "HIGHLAND LATIN SCHOOL", "ADDRESS": "2800 FRANKFORT AVE", "CITY": "LOUISVILLE", "ST": "KY", "ZIP": 40206.0, "PHONE": "895-5333", "SCH_AB": "HIGHLAND LATIN", "SCH_WEB": "http:\/\/www.thelatinschool.org\/", "FACNAME": "HIGHLAND LATIN SCHOOL" }, "geometry": { "type": "Point", "coordinates": [ -85.689835637222274, 38.253852808056124 ] } },
{ "type": "Feature", "id": 93, "properties": { "OBJECTID": 236.0, "LEVEL_": "E", "LOC_TYPE": "PAROCHIAL SCHOOL", "LOC": 6293.0, "SCH_NAME": "ST AGNES", "ADDRESS": "1800 NEWBURG RD", "CITY": "LOUISVILLE", "ST": "KY", "ZIP": 40205.0, "PHONE": "458-2850", "SCH_AB": "ST. AGNES", "SCH_WEB": "http:\/\/school.stagneslouisville.org\/", "FACNAME": "ST AGNES" }, "geometry": { "type": "Point", "coordinates": [ -85.712420989531637, 38.220508256116247 ] } },
{ "type": "Feature", "id": 94, "properties": { "OBJECTID": 238.0, "LEVEL_": "C", "LOC_TYPE": "PRIVATE SCHOOL", "LOC": 0.0, "SCH_NAME": "WEST END SCHOOL", "ADDRESS": "3628 VIRGINIA AVE", "CITY": "LOUISVILLE", "ST": "KY", "ZIP": 40211.0, "PHONE": "776-5236", "SCH_AB": "WEST END", "SCH_WEB": "http:\/\/www.westendschool.org\/", "FACNAME": "WEST END SCHOOL" }, "geometry": { "type": "Point", "coordinates": [ -85.814698231511358, 38.239025064800522 ] } },
{ "type": "Feature", "id": 95, "properties": { "OBJECTID": 243.0, "LEVEL_": "C", "LOC_TYPE": "PRIVATE SCHOOL", "LOC": 5002.0, "SCH_NAME": "NUR ISLAMIC SCHOOL OF LOU.", "ADDRESS": "6500 SIX MILE LN", "CITY": "LOUISVILLE", "ST": "KY", "ZIP": 40218.0, "PHONE": "459-9447", "SCH_AB": "NUR ISLAMIC", "SCH_WEB": "http:\/\/www.nurislamicschool.org\/", "FACNAME": "NUR ISLAMIC SCHOOL OF LOU." }, "geometry": { "type": "Point", "coordinates": [ -85.634272293645324, 38.197163820890552 ] } },
{ "type": "Feature", "id": 96, "properties": { "OBJECTID": 245.0, "LEVEL_": "E", "LOC_TYPE": "PRIVATE SCHOOL", "LOC": 5798.0, "SCH_NAME": "HAYFIELD MONTESSORI SCHOOL", "ADDRESS": "2000 TYLER LN", "CITY": "LOUISVILLE", "ST": "KY", "ZIP": 40205.0, "PHONE": "454-7122", "SCH_AB": "HAYFIELD", "SCH_WEB": "http:\/\/www.hayfieldmontessori.com\/", "FACNAME": "HAYFIELD MONTESSORI SCHOOL" }, "geometry": { "type": "Point", "coordinates": [ -85.683102231551615, 38.21369890388879 ] } },
{ "type": "Feature", "id": 97, "properties": { "OBJECTID": 246.0, "LEVEL_": "C", "LOC_TYPE": "PRIVATE SCHOOL", "LOC": 5305.0, "SCH_NAME": "LOUISVILLE COLLEGIATE SCHOOL", "ADDRESS": "2427 GLENMARY AV", "CITY": "LOUISVILLE", "ST": "KY", "ZIP": 40204.0, "PHONE": "479-0340", "SCH_AB": "COLLEGIATE", "SCH_WEB": "http:\/\/www.loucol.com\/", "FACNAME": "LOUISVILLE COLLEGIATE SCHOOL" }, "geometry": { "type": "Point", "coordinates": [ -85.71142897911848, 38.241197489615701 ] } },
{ "type": "Feature", "id": 98, "properties": { "OBJECTID": 249.0, "LEVEL_": "S", "LOC_TYPE": "PRIVATE SCHOOL", "LOC": 5576.0, "SCH_NAME": "NORTHSIDE CHRISTIAN", "ADDRESS": "2214 BANK ST", "CITY": "LOUISVILLE", "ST": "KY", "ZIP": 40212.0, "PHONE": "778-1113", "SCH_AB": "NORTHSIDE", "SCH_WEB": "http:\/\/www.northsideforyou.com\/", "FACNAME": "NORTHSIDE CHRISTIAN" }, "geometry": { "type": "Point", "coordinates": [ -85.786160682311149, 38.267108700464675 ] } },
{ "type": "Feature", "id": 99, "properties": { "OBJECTID": 250.0, "LEVEL_": "S", "LOC_TYPE": "PRIVATE SCHOOL", "LOC": 5792.0, "SCH_NAME": "ST FRANCIS HIGH", "ADDRESS": "233 W BROADWAY", "CITY": "LOUISVILLE", "ST": "KY", "ZIP": 40202.0, "PHONE": "585-2057", "SCH_AB": "ST. FRANCIS", "SCH_WEB": "http:\/\/stfrancisschool.org\/", "FACNAME": "ST FRANCIS HIGH" }, "geometry": { "type": "Point", "coordinates": [ -85.75622174587113, 38.246373305236922 ] } },
{ "type": "Feature", "id": 100, "properties": { "OBJECTID": 253.0, "LEVEL_": "M", "LOC_TYPE": "JCPS", "LOC": 191.0, "SCH_NAME": "W.E.B. DUBOIS ACADEMY", "ADDRESS": "4425 PRESTON HIGHWAY", "CITY": "LOUISVILLE", "ST": "KY", "ZIP": 40213.0, "PHONE": "485-7600", "SCH_AB": "DUBOIS", "SCH_WEB": "https:\/\/schools.jefferson.kyschools.us\/middle\/DuBoisAcademy\/", "FACNAME": "W.E.B. DUBOIS ACADEMY" }, "geometry": { "type": "Point", "coordinates": [ -85.720520477209959, 38.183920186602229 ] } }
]
}
